{
"type": "FeatureCollection",
"name": "Samaria",
"crs": { "type": "name", "properties": { "name": "urn:ogc:def:crs:OGC:1.3:CRS84" } },
"features": [
{ "type": "Feature", "properties": { "Site_Name": "חר' ג'מעין", "X": 206951.0, "Y": 675089.0, "Status": "Both", "Code": "3", "Name_En": "Kh. Jammaʿin" }, "geometry": { "type": "Point", "coordinates": [ 35.071857468133445, 32.169203269794409 ] } },
{ "type": "Feature", "properties": { "Site_Name": "הר גריזים", "X": 225901.0, "Y": 678603.0, "Status": "גן לאומי", "Code": "1", "Name_En": "Mt Gerizim" }, "geometry": { "type": "Point", "coordinates": [ 35.272792193231567, 32.20094285774271 ] } },
{ "type": "Feature", "properties": { "Site_Name": "שיח בילאל", "X": 231434.712, "Y": 682488.259, "Status": "Heritage", "Code": "2", "Name_En": "Shih Bilal" }, "geometry": { "type": "Point", "coordinates": [ 35.327668308859209, 32.242386171978318 ] } },
{ "type": "Feature", "properties": { "Site_Name": "חר' בורק", "X": 210783.0, "Y": 668069.0, "Status": "Heritage", "Code": "4", "Name_En": "Khirbet Borek" }, "geometry": { "type": "Point", "coordinates": [ 35.112548366973236, 32.10593373382541 ] } },
{ "type": "Feature", "properties": { "Site_Name": "דיר קלעה", "X": 204369.864, "Y": 662784.102, "Status": "Heritage", "Code": "3", "Name_En": "Deir Qala" }, "geometry": { "type": "Point", "coordinates": [ 35.045055069759023, 32.057494391951018 ] } },
{ "type": "Feature", "properties": { "Site_Name": "דיר סמען", "X": 204883.0, "Y": 663936.0, "Status": "Heritage", "Code": "4", "Name_En": "Deir Sam'an" }, "geometry": { "type": "Point", "coordinates": [ 35.050101561795742, 32.068601837647321 ] } },
{ "type": "Feature", "properties": { "Site_Name": "סלמן אל פרסי", "X": 222500.043, "Y": 675019.964, "Status": "Heritage", "Code": "4", "Name_En": "Salman al-Farsi" }, "geometry": { "type": "Point", "coordinates": [ 35.236710762692383, 32.168646009511349 ] } },
{ "type": "Feature", "properties": { "Site_Name": "חר' כורכוש", "X": 211019.249, "Y": 666054.762, "Status": "Heritage", "Code": "4", "Name_En": "Khirbet Kurkush" }, "geometry": { "type": "Point", "coordinates": [ 35.115069064912888, 32.08777123335387 ] } },
{ "type": "Feature", "properties": { "Site_Name": "אחמד אל תאעבאן", "X": 225039.0, "Y": 677552.0, "Status": "Heritage", "Code": "4", "Name_En": "Ahmad al-Taaban" }, "geometry": { "type": "Point", "coordinates": [ 35.257530781198582, 32.191604071609184 ] } },
{ "type": "Feature", "properties": { "Site_Name": "נבי איסמעאיל", "X": 225456.0, "Y": 675996.0, "Status": "Heritage", "Code": "4", "Name_En": "Nabi Ismail" }, "geometry": { "type": "Point", "coordinates": [ 35.268056229718169, 32.17743586402618 ] } },
{ "type": "Feature", "properties": { "Site_Name": "חר' עוזי", "X": 224421.0, "Y": 669208.0, "Status": "Heritage", "Code": "4", "Name_En": "Khirbet Uzi" }, "geometry": { "type": "Point", "coordinates": [ 35.25704681364931, 32.11622752203192 ] } },
{ "type": "Feature", "properties": { "Site_Name": "עין אל כבירה", "X": 231815.0, "Y": 680966.0, "Status": "Heritage", "Code": "2", "Name_En": "Ein al-Kabira" }, "geometry": { "type": "Point", "coordinates": [ 35.335545631660054, 32.222202369146956 ] } },
{ "type": "Feature", "properties": { "Site_Name": "חר' חיא", "X": 229344.0, "Y": 675365.0, "Status": "Heritage", "Code": "5", "Name_En": "Khirbet Haya" }, "geometry": { "type": "Point", "coordinates": [ 35.309274589788714, 32.17171814944426 ] } },
{ "type": "Feature", "properties": { "Site_Name": "שומרון הקדומה (סבסטיה)", "X": 218063.0, "Y": 686956.0, "Status": "גן לאומי", "Code": "1", "Name_En": "Sebastia" }, "geometry": { "type": "Point", "coordinates": [ 35.189651413115847, 32.27628580444636 ] } },
{ "type": "Feature", "properties": { "Site_Name": "חר' א לג'ה", "X": 217140.0, "Y": 708932.0, "Status": "Heritage", "Code": "5", "Name_En": "Khirbet al-Laja" }, "geometry": { "type": "Point", "coordinates": [ 35.179800504468659, 32.474454156002253 ] } },
{ "type": "Feature", "properties": { "Site_Name": "הר עיבל", "X": 225940.0, "Y": 682177.0, "Status": "Heritage", "Code": "1", "Name_En": "Mt Ebal" }, "geometry": { "type": "Point", "coordinates": [ 35.2732300981923, 32.233172178639499 ] } },
{ "type": "Feature", "properties": { "Site_Name": "אל חירבה", "X": 217100.0, "Y": 684696.0, "Status": "Heritage", "Code": "4", "Name_En": "Al-Hirbah" }, "geometry": { "type": "Point", "coordinates": [ 35.179435121455391, 32.255940231380222 ] } },
{ "type": "Feature", "properties": { "Site_Name": "חר' סמרה", "X": 211000.0, "Y": 687250.0, "Status": "Both", "Code": "3", "Name_En": "Khirbet Samra" }, "geometry": { "type": "Point", "coordinates": [ 35.11467790939556, 32.278905998240496 ] } },
{ "type": "Feature", "properties": { "Site_Name": "תל תענך", "X": 220879.0, "Y": 714217.0, "Status": "Heritage", "Code": "4", "Name_En": "Tel Ta'anach" }, "geometry": { "type": "Point", "coordinates": [ 35.219562700514501, 32.522097749140009 ] } },
{ "type": "Feature", "properties": { "Site_Name": "תל דותן", "X": 222712.0, "Y": 702091.0, "Status": "Heritage", "Code": "4", "Name_En": "Tel Dothan" }, "geometry": { "type": "Point", "coordinates": [ 35.239069856772105, 32.412763977127888 ] } },
{ "type": "Feature", "properties": { "Site_Name": "חר' אום ריחאן", "X": 213539.0, "Y": 710071.0, "Status": "Heritage", "Code": "4", "Name_En": "Khirbet Umm Rihan" }, "geometry": { "type": "Point", "coordinates": [ 35.14139364760868, 32.484594372658712 ] } },
{ "type": "Feature", "properties": { "Site_Name": "חר' א'-שג'רה", "X": 217518.0, "Y": 666948.0, "Status": "Both", "Code": "4", "Name_En": "Khirbet al-Shajara" }, "geometry": { "type": "Point", "coordinates": [ 35.184281897155017, 32.095889415939403 ] } },
{ "type": "Feature", "properties": { "Site_Name": "חר' רס קרה", "X": 218890.0, "Y": 667304.0, "Status": "Both", "Code": "4", "Name_En": "Khirbet Ras Kara" }, "geometry": { "type": "Point", "coordinates": [ 35.198613843579025, 32.099021670509259 ] } },
{ "type": "Feature", "properties": { "Site_Name": "מתקן סינון עפר - שומרון", "X": 217785.0, "Y": 685618.0, "Status": "Heritage", "Code": "3", "Name_En": "Soil Filtration Facility - Shomron" }, "geometry": { "type": "Point", "coordinates": [ 35.186716026645357, 32.264205878161022 ] } },
{ "type": "Feature", "properties": { "Site_Name": "קדומים", "X": 215100.0, "Y": 680146.0, "Status": "Adoption", "Code": "5", "Name_En": "Kadomim" }, "geometry": { "type": "Point", "coordinates": [ 35.158231427004822, 32.214867389128742 ] } },
{ "type": "Feature", "properties": { "Site_Name": "קדומים צפון", "X": 215300.0, "Y": 682400.0, "Status": "Adoption", "Code": "5", "Name_En": "Northern Kadomim" }, "geometry": { "type": "Point", "coordinates": [ 35.160343115729439, 32.23519420438592 ] } }
]
}
